{
    "type": "Topology",
    "arcs": [],
    "objects": {
        "bmrt_station": {
            "type": "GeometryCollection",
            "geometries": [
                {
                    "type": "Point",
                    "coordinates": [100.55381349878373, 13.7225572849115],
                    "properties": {
                        "name": "สถานีคลองเตย",
                        "location": "ถนนพระราม 4",
                        "dcode": "1033",
                        "num_pass": 582654
                    }
                },
                {
                    "type": "Point",
                    "coordinates": [100.5600669554436, 13.723741800289238],
                    "properties": {
                        "name": "สถานีศูนย์ประชุมสิริกิติ์",
                        "location": "ถนนรัชดาภิเษก",
                        "dcode": "1033",
                        "num_pass": 3710289
                    }
                },
                {
                    "type": "Point",
                    "coordinates": [100.53935189699259, 13.803131661125507],
                    "properties": {
                        "name": "สถานีบางซื่อ",
                        "location": "ใกล้สถานีรถไฟบางซื่อ ถนนเทอดดำริ",
                        "dcode": "1030",
                        "num_pass": 2701979
                    }
                },
                {
                    "type": "Point",
                    "coordinates": [100.55404765703396, 13.803828508051218],
                    "properties": {
                        "name": "สถานีสวนจตุจักร",
                        "location": "ถนนพหลโยธิน",
                        "dcode": "1030",
                        "num_pass": 3945951
                    }
                },
                {
                    "type": "Point",
                    "coordinates": [100.57350110696865, 13.80600200429472],
                    "properties": {
                        "name": "สถานีลาดพร้าว",
                        "location": "แยกถนนลาดพร้าว-ถนนรัชดาภิเษก",
                        "dcode": "1030",
                        "num_pass": 4179222
                    }
                },
                {
                    "type": "Point",
                    "coordinates": [100.57437928913507, 13.78903694803619],
                    "properties": {
                        "name": "สถานีสุทธิสาร",
                        "location": "แยกสุทธิสาร ถนนรัชดาภิเษก",
                        "dcode": "1026",
                        "num_pass": 3563059
                    }
                },
                {
                    "type": "Point",
                    "coordinates": [100.57444299469037, 13.799171233445247],
                    "properties": {
                        "name": "สถานีรัชดาภิเษก",
                        "location": "ถนนรัชดาภิเษก",
                        "dcode": "1026",
                        "num_pass": 2002601
                    }
                },
                {
                    "type": "Point",
                    "coordinates": [100.57391614813561, 13.778992412431124],
                    "properties": {
                        "name": "สถานีห้วยขวาง",
                        "location": "แยกห้วยขวาง ถนนรัชดาภิเษก",
                        "dcode": "1026",
                        "num_pass": 5255124
                    }
                },
                {
                    "type": "Point",
                    "coordinates": [100.54755886838727, 13.797789600908628],
                    "properties": {
                        "name": "สถานีกำแพงเพชร",
                        "location": "แยกถนนกำแพงเพชร 1-ถนนกำแพงเพชร 2",
                        "dcode": "1030",
                        "num_pass": 1332137
                    }
                },
                {
                    "type": "Point",
                    "coordinates": [100.5652036910844, 13.757765836128181],
                    "properties": {
                        "name": "สถานีพระราม 9",
                        "location": "แยกถนนรัชดาภิเษก-ถนนพระราม 9",
                        "dcode": "1026",
                        "num_pass": 4289938
                    }
                },
                {
                    "type": "Point",
                    "coordinates": [100.57135987373114, 13.767282207368442],
                    "properties": {
                        "name": "สถานีศูนย์วัฒนธรรม",
                        "location": "ถนนรัชดาภิเษก",
                        "dcode": "1026",
                        "num_pass": 4571231
                    }
                },
                {
                    "type": "Point",
                    "coordinates": [100.56314408229709, 13.7485093040924],
                    "properties": {
                        "name": "สถานีเพชรบุรี",
                        "location": "แยกถนนเพชรบุรี-ถนนอโศก",
                        "dcode": "1037",
                        "num_pass": 4729479
                    }
                },
                {
                    "type": "Point",
                    "coordinates": [100.56146197840943, 13.738456418386315],
                    "properties": {
                        "name": "สถานีสุขุมวิท",
                        "location": "แยกถนนสุขุมวิท-ถนนอโศก",
                        "dcode": "1039",
                        "num_pass": 8761678
                    }
                },
                {
                    "type": "Point",
                    "coordinates": [100.52950612317426, 13.732797937663875],
                    "properties": {
                        "name": "สถานีสามย่าน",
                        "location": "แยกสามย่าน ถนนพระราม 4",
                        "dcode": "1004",
                        "num_pass": 2590146
                    }
                },
                {
                    "type": "Point",
                    "coordinates": [100.53644851244013, 13.729212748730859],
                    "properties": {
                        "name": "สถานีสีลม",
                        "location": "แยกศาลาแดง ถนนพระราม 4",
                        "dcode": "1004",
                        "num_pass": 5156150
                    }
                },
                {
                    "type": "Point",
                    "coordinates": [100.54505677061735, 13.72631298009558],
                    "properties": {
                        "name": "สถานีลุมพินี",
                        "location": "แยกวิทยุ ถนนพระราม 4",
                        "dcode": "1007",
                        "num_pass": 2614759
                    }
                },
                {
                    "type": "Point",
                    "coordinates": [100.51696625834037, 13.737887759397724],
                    "properties": {
                        "name": "สถานีหัวลำโพง",
                        "location": "ถนนพระราม 4",
                        "dcode": "1004",
                        "num_pass": 4225013
                    }
                },
                {
                    "type": "Point",
                    "coordinates": [100.56014689849164, 13.814151929618221],
                    "properties": {
                        "name": "สถานีพหลโยธิน",
                        "location": "บริเวณห้าแยกลาดพร้าว",
                        "dcode": "1030",
                        "num_pass": 4342337
                    }
                }
            ]
        }
    }
}
